{"taiwan_data":[{"id":"63000","name":"台北市","districs":[{"zip_code":"105","ship_id":"6300100","name":"松山區","lng":"121.568985","is_island":false,"lat":"25.051607"},{"zip_code":"110","ship_id":"6300200","name":"信義區","lng":"121.558739","is_island":false,"lat":"25.035095"},{"zip_code":"106","ship_id":"6300300","name":"大安區","lng":"121.526398","is_island":false,"lat":"25.028248"},{"zip_code":"104","ship_id":"6300400","name":"中山區","lng":"121.525345","is_island":false,"lat":"25.066259"},{"zip_code":"100","ship_id":"6300500","name":"中正區","lng":"121.510063","is_island":false,"lat":"25.034069"},{"zip_code":"103","ship_id":"6300600","name":"大同區","lng":"121.507225","is_island":false,"lat":"25.068026"},{"zip_code":"108","ship_id":"6300700","name":"萬華區","lng":"121.491615","is_island":false,"lat":"25.036715"},{"zip_code":"116","ship_id":"6300800","name":"文山區","lng":"121.561760","is_island":false,"lat":"24.991364"},{"zip_code":"115","ship_id":"6300900","name":"南港區","lng":"121.598488","is_island":false,"lat":"25.056316"},{"zip_code":"114","ship_id":"6301000","name":"內湖區","lng":"121.580688","is_island":false,"lat":"25.071182"},{"zip_code":"111","ship_id":"6301100","name":"士林區","lng":"121.511459","is_island":false,"lat":"25.094612"},{"zip_code":"112","ship_id":"6301200","name":"北投區","lng":"121.494598","is_island":false,"lat":"25.134132"}]},{"id":"10017","name":"基隆市","districs":[{"zip_code":"202","ship_id":"1001701","name":"中正區","lng":"121.759354","is_island":false,"lat":"25.153191"},{"zip_code":"206","ship_id":"1001702","name":"七堵區","lng":"121.705025","is_island":false,"lat":"25.097645"},{"zip_code":"205","ship_id":"1001703","name":"暖暖區","lng":"121.727654","is_island":false,"lat":"25.101908"},{"zip_code":"200","ship_id":"1001704","name":"仁愛區","lng":"121.732590","is_island":false,"lat":"25.129442"},{"zip_code":"203","ship_id":"1001705","name":"中山區","lng":"121.721458","is_island":false,"lat":"25.154739"},{"zip_code":"204","ship_id":"1001706","name":"安樂區","lng":"121.715042","is_island":false,"lat":"25.122816"},{"zip_code":"201","ship_id":"1001707","name":"信義區","lng":"121.743103","is_island":false,"lat":"25.131325"}]},{"id":"65000","name":"新北市","districs":[{"zip_code":"220","ship_id":"6500001","name":"板橋區","lng":"121.450890","is_island":false,"lat":"25.011539"},{"zip_code":"241","ship_id":"6500002","name":"三重區","lng":"121.480103","is_island":false,"lat":"25.062727"},{"zip_code":"235","ship_id":"6500003","name":"中和區","lng":"121.492790","is_island":false,"lat":"25.000439"},{"zip_code":"234","ship_id":"6500004","name":"永和區","lng":"121.511986","is_island":false,"lat":"25.010925"},{"zip_code":"248","ship_id":"6500005","name":"新莊區","lng":"121.442337","is_island":false,"lat":"25.037647"},{"zip_code":"231","ship_id":"6500006","name":"新店區","lng":"121.533394","is_island":false,"lat":"24.969154"},{"zip_code":"238","ship_id":"6500007","name":"樹林區","lng":"121.416595","is_island":false,"lat":"24.991747"},{"zip_code":"239","ship_id":"6500008","name":"鶯歌區","lng":"121.346153","is_island":false,"lat":"24.957830"},{"zip_code":"237","ship_id":"6500009","name":"三峽區","lng":"121.370457","is_island":false,"lat":"24.934808"},{"zip_code":"251","ship_id":"6500010","name":"淡水區","lng":"121.433022","is_island":false,"lat":"25.171349"},{"zip_code":"221","ship_id":"6500011","name":"汐止區","lng":"121.650742","is_island":false,"lat":"25.065596"},{"zip_code":"224","ship_id":"6500012","name":"瑞芳區","lng":"121.801750","is_island":false,"lat":"25.110676"},{"zip_code":"236","ship_id":"6500013","name":"土城區","lng":"121.434708","is_island":false,"lat":"24.974167"},{"zip_code":"247","ship_id":"6500014","name":"蘆洲區","lng":"121.465660","is_island":false,"lat":"25.086664"},{"zip_code":"248","ship_id":"6500015","name":"五股區","lng":"121.429695","is_island":false,"lat":"25.084970"},{"zip_code":"243","ship_id":"6500016","name":"泰山區","lng":"121.423294","is_island":false,"lat":"25.061123"},{"zip_code":"244","ship_id":"6500017","name":"林口區","lng":"121.380577","is_island":false,"lat":"25.078714"},{"zip_code":"222","ship_id":"6500018","name":"深坑區","lng":"121.607651","is_island":false,"lat":"25.004227"},{"zip_code":"223","ship_id":"6500019","name":"石碇區","lng":"121.649704","is_island":false,"lat":"24.993298"},{"zip_code":"232","ship_id":"6500020","name":"坪林區","lng":"121.703583","is_island":false,"lat":"24.937916"},{"zip_code":"252","ship_id":"6500021","name":"三芝區","lng":"121.492653","is_island":false,"lat":"25.259569"},{"zip_code":"253","ship_id":"6500022","name":"石門區","lng":"121.559410","is_island":false,"lat":"25.293055"},{"zip_code":"249","ship_id":"6500023","name":"八里區","lng":"121.393242","is_island":false,"lat":"25.151167"},{"zip_code":"226","ship_id":"6500024","name":"平溪區","lng":"121.729965","is_island":false,"lat":"25.028399"},{"zip_code":"227","ship_id":"6500025","name":"雙溪區","lng":"121.857552","is_island":false,"lat":"25.035583"},{"zip_code":"228","ship_id":"6500026","name":"貢寮區","lng":"121.902069","is_island":false,"lat":"25.023640"},{"zip_code":"208","ship_id":"6500027","name":"金山區","lng":"121.628342","is_island":false,"lat":"25.224161"},{"zip_code":"207","ship_id":"6500028","name":"萬里區","lng":"121.681366","is_island":false,"lat":"25.179817"},{"zip_code":"233","ship_id":"6500029","name":"烏來區","lng":"121.539955","is_island":false,"lat":"24.873686"}]},{"id":"10002","name":"宜蘭縣","districs":[{"zip_code":"260","ship_id":"1000201","name":"宜蘭市","lng":"121.745087","is_island":false,"lat":"24.753708"},{"zip_code":"265","ship_id":"1000202","name":"羅東鎮","lng":"121.758766","is_island":false,"lat":"24.678673"},{"zip_code":"270","ship_id":"1000203","name":"蘇澳鎮","lng":"121.833839","is_island":false,"lat":"24.596231"},{"zip_code":"261","ship_id":"1000204","name":"頭城鎮","lng":"121.815262","is_island":false,"lat":"24.861073"},{"zip_code":"262","ship_id":"1000205","name":"礁溪鄉","lng":"121.763168","is_island":false,"lat":"24.825321"},{"zip_code":"263","ship_id":"1000206","name":"壯圍鄉","lng":"121.777412","is_island":false,"lat":"24.748707"},{"zip_code":"264","ship_id":"1000207","name":"員山鄉","lng":"121.715126","is_island":false,"lat":"24.745270"},{"zip_code":"269","ship_id":"1000208","name":"冬山鄉","lng":"121.784012","is_island":false,"lat":"24.636322"},{"zip_code":"268","ship_id":"1000209","name":"五結鄉","lng":"121.790085","is_island":false,"lat":"24.686573"},{"zip_code":"266","ship_id":"1000210","name":"三星鄉","lng":"121.645668","is_island":false,"lat":"24.667368"},{"zip_code":"267","ship_id":"1000211","name":"大同鄉","lng":"121.601059","is_island":false,"lat":"24.679026"},{"zip_code":"272","ship_id":"1000212","name":"南澳鄉","lng":"121.795906","is_island":false,"lat":"24.467878"}]},{"id":"10018","name":"新竹市","districs":[{"zip_code":"300","ship_id":"1001801","name":"東區","lng":"120.965302","is_island":false,"lat":"24.806995"},{"zip_code":"300","ship_id":"1001802","name":"北區","lng":"120.962112","is_island":false,"lat":"24.818110"},{"zip_code":"300","ship_id":"1001803","name":"香山區","lng":"120.933769","is_island":false,"lat":"24.798788"}]},{"id":"10004","name":"新竹縣","districs":[{"zip_code":"302","ship_id":"1000401","name":"竹北市","lng":"120.995697","is_island":false,"lat":"24.841246"},{"zip_code":"310","ship_id":"1000402","name":"竹東鎮","lng":"121.083534","is_island":false,"lat":"24.738499"},{"zip_code":"305","ship_id":"1000403","name":"新埔鎮","lng":"121.063087","is_island":false,"lat":"24.829659"},{"zip_code":"306","ship_id":"1000404","name":"關西鎮","lng":"121.167610","is_island":false,"lat":"24.794170"},{"zip_code":"303","ship_id":"1000405","name":"湖口鄉","lng":"121.039803","is_island":false,"lat":"24.902695"},{"zip_code":"304","ship_id":"1000406","name":"新豐鄉","lng":"120.977257","is_island":false,"lat":"24.902527"},{"zip_code":"307","ship_id":"1000407","name":"芎林鄉","lng":"121.073662","is_island":false,"lat":"24.775089"},{"zip_code":"312","ship_id":"1000408","name":"橫山鄉","lng":"121.133286","is_island":false,"lat":"24.718599"},{"zip_code":"314","ship_id":"1000409","name":"北埔鄉","lng":"121.048233","is_island":false,"lat":"24.703730"},{"zip_code":"308","ship_id":"1000410","name":"寶山鄉","lng":"120.982971","is_island":false,"lat":"24.767366"},{"zip_code":"315","ship_id":"1000411","name":"峨眉鄉","lng":"121.011375","is_island":false,"lat":"24.690531"},{"zip_code":"313","ship_id":"1000412","name":"尖石鄉","lng":"121.193275","is_island":false,"lat":"24.706999"},{"zip_code":"311","ship_id":"1000413","name":"五峰鄉","lng":"121.111359","is_island":false,"lat":"24.633917"}]},{"id":"10003","name":"桃園市","districs":[{"zip_code":"330","ship_id":"1000301","name":"桃園區","lng":"121.293449","is_island":false,"lat":"24.995720"},{"zip_code":"320","ship_id":"1000302","name":"中壢區","lng":"121.216919","is_island":false,"lat":"24.967495"},{"zip_code":"335","ship_id":"1000303","name":"大溪區","lng":"121.278915","is_island":false,"lat":"24.882288"},{"zip_code":"326","ship_id":"1000304","name":"楊梅區","lng":"121.137642","is_island":false,"lat":"24.909367"},{"zip_code":"338","ship_id":"1000305","name":"蘆竹區","lng":"121.287056","is_island":false,"lat":"25.048746"},{"zip_code":"337","ship_id":"1000306","name":"大園區","lng":"121.187248","is_island":false,"lat":"25.065701"},{"zip_code":"333","ship_id":"1000307","name":"龜山區","lng":"121.329689","is_island":false,"lat":"24.994329"},{"zip_code":"334","ship_id":"1000308","name":"八德區","lng":"121.276398","is_island":false,"lat":"24.930719"},{"zip_code":"325","ship_id":"1000309","name":"龍潭區","lng":"121.208336","is_island":false,"lat":"24.865807"},{"zip_code":"324","ship_id":"1000310","name":"平鎮區","lng":"121.209999","is_island":false,"lat":"24.947382"},{"zip_code":"327","ship_id":"1000311","name":"新屋區","lng":"121.097321","is_island":false,"lat":"24.974325"},{"zip_code":"328","ship_id":"1000312","name":"觀音區","lng":"121.073654","is_island":false,"lat":"25.038202"},{"zip_code":"336","ship_id":"1000313","name":"復興區","lng":"121.343407","is_island":false,"lat":"24.820341"}]},{"id":"10005","name":"苗栗縣","districs":[{"zip_code":"360","ship_id":"1000501","name":"苗栗市","lng":"120.810966","is_island":false,"lat":"24.563328"},{"zip_code":"358","ship_id":"1000502","name":"苑裡鎮","lng":"120.644958","is_island":false,"lat":"24.441422"},{"zip_code":"357","ship_id":"1000503","name":"通霄鎮","lng":"120.676109","is_island":false,"lat":"24.493071"},{"zip_code":"350","ship_id":"1000504","name":"竹南鎮","lng":"120.865295","is_island":false,"lat":"24.685652"},{"zip_code":"351","ship_id":"1000505","name":"頭份鎮","lng":"120.904762","is_island":false,"lat":"24.687918"},{"zip_code":"356","ship_id":"1000506","name":"後龍鎮","lng":"120.783844","is_island":false,"lat":"24.615429"},{"zip_code":"369","ship_id":"1000507","name":"卓蘭鎮","lng":"120.816399","is_island":false,"lat":"24.314650"},{"zip_code":"364","ship_id":"1000508","name":"大湖鄉","lng":"120.857994","is_island":false,"lat":"24.425184"},{"zip_code":"363","ship_id":"1000509","name":"公館鄉","lng":"120.820313","is_island":false,"lat":"24.507572"},{"zip_code":"366","ship_id":"1000510","name":"銅鑼鄉","lng":"120.779671","is_island":false,"lat":"24.488750"},{"zip_code":"353","ship_id":"1000511","name":"南庄鄉","lng":"120.992180","is_island":false,"lat":"24.598866"},{"zip_code":"362","ship_id":"1000512","name":"頭屋鄉","lng":"120.842911","is_island":false,"lat":"24.579517"},{"zip_code":"367","ship_id":"1000513","name":"三義鄉","lng":"120.762009","is_island":false,"lat":"24.414619"},{"zip_code":"368","ship_id":"1000514","name":"西湖鄉","lng":"120.749168","is_island":false,"lat":"24.558384"},{"zip_code":"361","ship_id":"1000515","name":"造橋鄉","lng":"120.857269","is_island":false,"lat":"24.640182"},{"zip_code":"352","ship_id":"1000516","name":"三灣鄉","lng":"120.948624","is_island":false,"lat":"24.654905"},{"zip_code":"354","ship_id":"1000517","name":"獅潭鄉","lng":"120.911903","is_island":false,"lat":"24.541315"},{"zip_code":"365","ship_id":"1000518","name":"泰安鄉","lng":"120.899780","is_island":false,"lat":"24.448973"}]},{"id":"66000","name":"台中市","districs":[{"zip_code":"400","ship_id":"6600001","name":"中區","lng":"120.671242","is_island":false,"lat":"24.145697"},{"zip_code":"401","ship_id":"6600002","name":"東區","lng":"120.695503","is_island":false,"lat":"24.138430"},{"zip_code":"402","ship_id":"6600003","name":"南區","lng":"120.655670","is_island":false,"lat":"24.118841"},{"zip_code":"403","ship_id":"6600004","name":"西區","lng":"120.662949","is_island":false,"lat":"24.142918"},{"zip_code":"404","ship_id":"6600005","name":"北區","lng":"120.673950","is_island":false,"lat":"24.167747"},{"zip_code":"407","ship_id":"6600006","name":"西屯區","lng":"120.625580","is_island":false,"lat":"24.167276"},{"zip_code":"408","ship_id":"6600007","name":"南屯區","lng":"120.634644","is_island":false,"lat":"24.140057"},{"zip_code":"406","ship_id":"6600008","name":"北屯區","lng":"120.678368","is_island":false,"lat":"24.184731"},{"zip_code":"420","ship_id":"6600009","name":"豐原區","lng":"120.710007","is_island":false,"lat":"24.243893"},{"zip_code":"423","ship_id":"6600010","name":"東勢區","lng":"120.819756","is_island":false,"lat":"24.260328"},{"zip_code":"437","ship_id":"6600011","name":"大甲區","lng":"120.614296","is_island":false,"lat":"24.350838"},{"zip_code":"436","ship_id":"6600012","name":"清水區","lng":"120.551628","is_island":false,"lat":"24.270172"},{"zip_code":"433","ship_id":"6600013","name":"沙鹿區","lng":"120.558136","is_island":false,"lat":"24.235085"},{"zip_code":"435","ship_id":"6600014","name":"梧棲區","lng":"120.523705","is_island":false,"lat":"24.256657"},{"zip_code":"421","ship_id":"6600015","name":"后里區","lng":"120.702576","is_island":false,"lat":"24.306704"},{"zip_code":"429","ship_id":"6600016","name":"神岡區","lng":"120.653229","is_island":false,"lat":"24.259569"},{"zip_code":"427","ship_id":"6600017","name":"潭子區","lng":"120.696999","is_island":false,"lat":"24.211248"},{"zip_code":"428","ship_id":"6600018","name":"大雅區","lng":"120.639648","is_island":false,"lat":"24.230892"},{"zip_code":"426","ship_id":"6600019","name":"新社區","lng":"120.801407","is_island":false,"lat":"24.235529"},{"zip_code":"422","ship_id":"6600020","name":"石岡區","lng":"120.771889","is_island":false,"lat":"24.276691"},{"zip_code":"438","ship_id":"6600021","name":"外埔區","lng":"120.646210","is_island":false,"lat":"24.333797"},{"zip_code":"439","ship_id":"6600022","name":"大安區","lng":"120.578369","is_island":false,"lat":"24.347963"},{"zip_code":"414","ship_id":"6600023","name":"烏日區","lng":"120.615585","is_island":false,"lat":"24.106527"},{"zip_code":"432","ship_id":"6600024","name":"大肚區","lng":"120.537575","is_island":false,"lat":"24.152887"},{"zip_code":"434","ship_id":"6600025","name":"龍井區","lng":"120.537628","is_island":false,"lat":"24.194294"},{"zip_code":"413","ship_id":"6600026","name":"霧峰區","lng":"120.691956","is_island":false,"lat":"24.062819"},{"zip_code":"411","ship_id":"6600027","name":"太平區","lng":"120.710205","is_island":false,"lat":"24.128151"},{"zip_code":"412","ship_id":"6600028","name":"大里區","lng":"120.669502","is_island":false,"lat":"24.101152"},{"zip_code":"424","ship_id":"6600029","name":"和平區","lng":"120.875458","is_island":false,"lat":"24.176580"}]},{"id":"10007","name":"彰化縣","districs":[{"zip_code":"500","ship_id":"1000701","name":"彰化市","lng":"120.534058","is_island":false,"lat":"24.082575"},{"zip_code":"505","ship_id":"1000702","name":"鹿港鎮","lng":"120.426903","is_island":false,"lat":"24.058958"},{"zip_code":"508","ship_id":"1000703","name":"和美鎮","lng":"120.486076","is_island":false,"lat":"24.110231"},{"zip_code":"507","ship_id":"1000704","name":"線西鄉","lng":"120.462578","is_island":false,"lat":"24.132324"},{"zip_code":"509","ship_id":"1000705","name":"伸港鄉","lng":"120.478035","is_island":false,"lat":"24.161568"},{"zip_code":"506","ship_id":"1000706","name":"福興鄉","lng":"120.435722","is_island":false,"lat":"24.049723"},{"zip_code":"504","ship_id":"1000707","name":"秀水鄉","lng":"120.494705","is_island":false,"lat":"24.037016"},{"zip_code":"503","ship_id":"1000708","name":"花壇鄉","lng":"120.530106","is_island":false,"lat":"24.031359"},{"zip_code":"502","ship_id":"1000709","name":"芬園鄉","lng":"120.620811","is_island":false,"lat":"24.015385"},{"zip_code":"510","ship_id":"1000710","name":"員林鎮","lng":"120.566223","is_island":false,"lat":"23.960810"},{"zip_code":"514","ship_id":"1000711","name":"溪湖鎮","lng":"120.475410","is_island":false,"lat":"23.967903"},{"zip_code":"520","ship_id":"1000712","name":"田中鎮","lng":"120.572807","is_island":false,"lat":"23.863241"},{"zip_code":"515","ship_id":"1000713","name":"大村鄉","lng":"120.539116","is_island":false,"lat":"23.995174"},{"zip_code":"516","ship_id":"1000714","name":"埔鹽鄉","lng":"120.455429","is_island":false,"lat":"24.002037"},{"zip_code":"513","ship_id":"1000715","name":"埔心鄉","lng":"120.535393","is_island":false,"lat":"23.954739"},{"zip_code":"512","ship_id":"1000716","name":"永靖鄉","lng":"120.539589","is_island":false,"lat":"23.926422"},{"zip_code":"511","ship_id":"1000717","name":"社頭鄉","lng":"120.577713","is_island":false,"lat":"23.898478"},{"zip_code":"530","ship_id":"1000718","name":"二水鄉","lng":"120.610779","is_island":false,"lat":"23.808357"},{"zip_code":"521","ship_id":"1000719","name":"北斗鎮","lng":"120.513687","is_island":false,"lat":"23.863300"},{"zip_code":"526","ship_id":"1000720","name":"二林鎮","lng":"120.366226","is_island":false,"lat":"23.901470"},{"zip_code":"522","ship_id":"1000721","name":"田尾鄉","lng":"120.517799","is_island":false,"lat":"23.893948"},{"zip_code":"523","ship_id":"1000722","name":"埤頭鄉","lng":"120.454041","is_island":false,"lat":"23.893303"},{"zip_code":"528","ship_id":"1000723","name":"芳苑鄉","lng":"120.312202","is_island":false,"lat":"23.926058"},{"zip_code":"527","ship_id":"1000724","name":"大城鄉","lng":"120.312813","is_island":false,"lat":"23.854033"},{"zip_code":"525","ship_id":"1000725","name":"竹塘鄉","lng":"120.419724","is_island":false,"lat":"23.862200"},{"zip_code":"524","ship_id":"1000726","name":"溪州鄉","lng":"120.490936","is_island":false,"lat":"23.853449"}]},{"id":"10008","name":"南投縣","districs":[{"zip_code":"540","ship_id":"1000801","name":"南投市","lng":"120.679245","is_island":false,"lat":"23.913301"},{"zip_code":"545","ship_id":"1000802","name":"埔里鎮","lng":"120.961060","is_island":false,"lat":"23.968307"},{"zip_code":"542","ship_id":"1000803","name":"草屯鎮","lng":"120.672119","is_island":false,"lat":"23.975548"},{"zip_code":"557","ship_id":"1000804","name":"竹山鎮","lng":"120.663292","is_island":false,"lat":"23.759415"},{"zip_code":"552","ship_id":"1000805","name":"集集鎮","lng":"120.778404","is_island":false,"lat":"23.830193"},{"zip_code":"551","ship_id":"1000806","name":"名間鄉","lng":"120.694923","is_island":false,"lat":"23.840067"},{"zip_code":"558","ship_id":"1000807","name":"鹿谷鄉","lng":"120.745438","is_island":false,"lat":"23.747355"},{"zip_code":"541","ship_id":"1000808","name":"中寮鄉","lng":"120.758026","is_island":false,"lat":"23.880735"},{"zip_code":"555","ship_id":"1000809","name":"魚池鄉","lng":"120.927498","is_island":false,"lat":"23.897526"},{"zip_code":"544","ship_id":"1000810","name":"國姓鄉","lng":"120.849274","is_island":false,"lat":"24.041861"},{"zip_code":"553","ship_id":"1000811","name":"水里鄉","lng":"120.847771","is_island":false,"lat":"23.813070"},{"zip_code":"556","ship_id":"1000812","name":"信義鄉","lng":"120.846436","is_island":false,"lat":"23.698586"},{"zip_code":"546","ship_id":"1000813","name":"仁愛鄉","lng":"121.124146","is_island":false,"lat":"24.023226"}]},{"id":"10020","name":"嘉義市","districs":[{"zip_code":"600","ship_id":"1002001","name":"東區","lng":"120.445358","is_island":false,"lat":"23.480385"},{"zip_code":"600","ship_id":"1002002","name":"西區","lng":"120.427284","is_island":false,"lat":"23.466267"}]},{"id":"10010","name":"嘉義縣","districs":[{"zip_code":"612","ship_id":"1001001","name":"太保市","lng":"120.323990","is_island":false,"lat":"23.460226"},{"zip_code":"613","ship_id":"1001002","name":"朴子市","lng":"120.238914","is_island":false,"lat":"23.466887"},{"zip_code":"625","ship_id":"1001003","name":"布袋鎮","lng":"120.158836","is_island":false,"lat":"23.379782"},{"zip_code":"622","ship_id":"1001004","name":"大林鎮","lng":"120.463051","is_island":false,"lat":"23.605679"},{"zip_code":"621","ship_id":"1001005","name":"民雄鄉","lng":"120.420387","is_island":false,"lat":"23.553198"},{"zip_code":"623","ship_id":"1001006","name":"溪口鄉","lng":"120.384186","is_island":false,"lat":"23.604305"},{"zip_code":"616","ship_id":"1001007","name":"新港鄉","lng":"120.339340","is_island":false,"lat":"23.553823"},{"zip_code":"615","ship_id":"1001008","name":"六腳鄉","lng":"120.283646","is_island":false,"lat":"23.494917"},{"zip_code":"614","ship_id":"1001009","name":"東石鄉","lng":"120.145576","is_island":false,"lat":"23.460548"},{"zip_code":"624","ship_id":"1001010","name":"義竹鄉","lng":"120.235184","is_island":false,"lat":"23.337967"},{"zip_code":"611","ship_id":"1001011","name":"鹿草鄉","lng":"120.300133","is_island":false,"lat":"23.413118"},{"zip_code":"608","ship_id":"1001012","name":"水上鄉","lng":"120.390068","is_island":false,"lat":"23.430202"},{"zip_code":"606","ship_id":"1001013","name":"中埔鄉","lng":"120.514832","is_island":false,"lat":"23.426785"},{"zip_code":"604","ship_id":"1001014","name":"竹崎鄉","lng":"120.543266","is_island":false,"lat":"23.524746"},{"zip_code":"603","ship_id":"1001015","name":"梅山鄉","lng":"120.547615","is_island":false,"lat":"23.586662"},{"zip_code":"602","ship_id":"1001016","name":"番路鄉","lng":"120.545952","is_island":false,"lat":"23.466255"},{"zip_code":"607","ship_id":"1001017","name":"大埔鄉","lng":"120.585648","is_island":false,"lat":"23.296602"},{"zip_code":"605","ship_id":"1001018","name":"阿里山鄉","lng":"120.705330","is_island":false,"lat":"23.473192"}]},{"id":"10009","name":"雲林縣","districs":[{"zip_code":"640","ship_id":"1000901","name":"斗六市","lng":"120.518875","is_island":false,"lat":"23.698833"},{"zip_code":"630","ship_id":"1000902","name":"斗南鎮","lng":"120.469513","is_island":false,"lat":"23.681730"},{"zip_code":"632","ship_id":"1000903","name":"虎尾鎮","lng":"120.437172","is_island":false,"lat":"23.709999"},{"zip_code":"648","ship_id":"1000904","name":"西螺鎮","lng":"120.457504","is_island":false,"lat":"23.799496"},{"zip_code":"633","ship_id":"1000905","name":"土庫鎮","lng":"120.384315","is_island":false,"lat":"23.679602"},{"zip_code":"651","ship_id":"1000906","name":"北港鎮","lng":"120.294266","is_island":false,"lat":"23.577747"},{"zip_code":"646","ship_id":"1000907","name":"古坑鄉","lng":"120.553894","is_island":false,"lat":"23.644554"},{"zip_code":"631","ship_id":"1000908","name":"大埤鄉","lng":"120.423225","is_island":false,"lat":"23.647545"},{"zip_code":"647","ship_id":"1000909","name":"莿桐鄉","lng":"120.494331","is_island":false,"lat":"23.762787"},{"zip_code":"643","ship_id":"1000910","name":"林內鄉","lng":"120.604752","is_island":false,"lat":"23.757915"},{"zip_code":"649","ship_id":"1000911","name":"二崙鄉","lng":"120.404694","is_island":false,"lat":"23.772884"},{"zip_code":"637","ship_id":"1000912","name":"崙背鄉","lng":"120.350990","is_island":false,"lat":"23.764181"},{"zip_code":"638","ship_id":"1000913","name":"麥寮鄉","lng":"120.243507","is_island":false,"lat":"23.755569"},{"zip_code":"635","ship_id":"1000914","name":"東勢鄉","lng":"120.244476","is_island":false,"lat":"23.676785"},{"zip_code":"634","ship_id":"1000915","name":"褒忠鄉","lng":"120.295258","is_island":false,"lat":"23.692846"},{"zip_code":"636","ship_id":"1000916","name":"台西鄉","lng":"120.188698","is_island":false,"lat":"23.702154"},{"zip_code":"655","ship_id":"1000917","name":"元長鄉","lng":"120.307022","is_island":false,"lat":"23.651428"},{"zip_code":"654","ship_id":"1000918","name":"四湖鄉","lng":"120.216316","is_island":false,"lat":"23.639900"},{"zip_code":"653","ship_id":"1000919","name":"口湖鄉","lng":"120.177330","is_island":false,"lat":"23.584236"},{"zip_code":"652","ship_id":"1000920","name":"水林鄉","lng":"120.237991","is_island":false,"lat":"23.574572"}]},{"id":"67000","name":"台南市","districs":[{"zip_code":"730","ship_id":"6700001","name":"新營區","lng":"120.308434","is_island":false,"lat":"23.311831"},{"zip_code":"737","ship_id":"6700002","name":"鹽水區","lng":"120.258080","is_island":false,"lat":"23.321798"},{"zip_code":"732","ship_id":"6700003","name":"白河區","lng":"120.407532","is_island":false,"lat":"23.353102"},{"zip_code":"736","ship_id":"6700004","name":"柳營區","lng":"120.303703","is_island":false,"lat":"23.280281"},{"zip_code":"731","ship_id":"6700005","name":"後壁區","lng":"120.353188","is_island":false,"lat":"23.367849"},{"zip_code":"733","ship_id":"6700006","name":"東山區","lng":"120.396431","is_island":false,"lat":"23.327871"},{"zip_code":"721","ship_id":"6700007","name":"麻豆區","lng":"120.250389","is_island":false,"lat":"23.186699"},{"zip_code":"735","ship_id":"6700008","name":"下營區","lng":"120.256233","is_island":false,"lat":"23.237385"},{"zip_code":"734","ship_id":"6700009","name":"六甲區","lng":"120.339355","is_island":false,"lat":"23.233521"},{"zip_code":"720","ship_id":"6700010","name":"官田區","lng":"120.307228","is_island":false,"lat":"23.194992"},{"zip_code":"742","ship_id":"6700011","name":"大內區","lng":"120.348869","is_island":false,"lat":"23.120705"},{"zip_code":"722","ship_id":"6700012","name":"佳里區","lng":"120.168968","is_island":false,"lat":"23.167042"},{"zip_code":"726","ship_id":"6700013","name":"學甲區","lng":"120.174232","is_island":false,"lat":"23.232162"},{"zip_code":"723","ship_id":"6700014","name":"西港區","lng":"120.195381","is_island":false,"lat":"23.124741"},{"zip_code":"724","ship_id":"6700015","name":"七股區","lng":"120.131325","is_island":false,"lat":"23.142471"},{"zip_code":"725","ship_id":"6700016","name":"將軍區","lng":"120.150612","is_island":false,"lat":"23.200645"},{"zip_code":"727","ship_id":"6700017","name":"北門區","lng":"120.117302","is_island":false,"lat":"23.269539"},{"zip_code":"712","ship_id":"6700018","name":"新化區","lng":"120.302795","is_island":false,"lat":"23.040281"},{"zip_code":"741","ship_id":"6700019","name":"善化區","lng":"120.288635","is_island":false,"lat":"23.134077"},{"zip_code":"744","ship_id":"6700020","name":"新市區","lng":"120.286964","is_island":false,"lat":"23.080673"},{"zip_code":"745","ship_id":"6700021","name":"安定區","lng":"120.228928","is_island":false,"lat":"23.123266"},{"zip_code":"743","ship_id":"6700022","name":"山上區","lng":"120.344482","is_island":false,"lat":"23.105318"},{"zip_code":"714","ship_id":"6700023","name":"玉井區","lng":"120.452019","is_island":false,"lat":"23.125486"},{"zip_code":"715","ship_id":"6700024","name":"楠西區","lng":"120.478264","is_island":false,"lat":"23.175871"},{"zip_code":"716","ship_id":"6700025","name":"南化區","lng":"120.469696","is_island":false,"lat":"23.044758"},{"zip_code":"713","ship_id":"6700026","name":"左鎮區","lng":"120.400658","is_island":false,"lat":"23.058657"},{"zip_code":"717","ship_id":"6700027","name":"仁德區","lng":"120.243591","is_island":false,"lat":"22.974167"},{"zip_code":"711","ship_id":"6700028","name":"歸仁區","lng":"120.285789","is_island":false,"lat":"22.968752"},{"zip_code":"718","ship_id":"6700029","name":"關廟區","lng":"120.319710","is_island":false,"lat":"22.964584"},{"zip_code":"719","ship_id":"6700030","name":"龍崎區","lng":"120.356743","is_island":false,"lat":"22.965160"},{"zip_code":"710","ship_id":"6700031","name":"永康區","lng":"120.248886","is_island":false,"lat":"23.027864"},{"zip_code":"701","ship_id":"6700032","name":"東區","lng":"120.215912","is_island":false,"lat":"22.981955"},{"zip_code":"702","ship_id":"6700033","name":"南區","lng":"120.180565","is_island":false,"lat":"22.962938"},{"zip_code":"704","ship_id":"6700034","name":"北區","lng":"120.194801","is_island":false,"lat":"23.001415"},{"zip_code":"709","ship_id":"6700035","name":"安南區","lng":"120.176613","is_island":false,"lat":"23.048965"},{"zip_code":"708","ship_id":"6700036","name":"安平區","lng":"120.160416","is_island":false,"lat":"22.996393"},{"zip_code":"700","ship_id":"6700037","name":"中西區","lng":"120.197594","is_island":false,"lat":"22.994043"}]},{"id":"64000","name":"高雄市","districs":[{"zip_code":"830","ship_id":"6400012","name":"鳳山區","lng":"120.354324","is_island":false,"lat":"22.628950"},{"zip_code":"832","ship_id":"6400013","name":"林園區","lng":"120.386711","is_island":false,"lat":"22.509735"},{"zip_code":"831","ship_id":"6400014","name":"大寮區","lng":"120.387428","is_island":false,"lat":"22.607134"},{"zip_code":"840","ship_id":"6400015","name":"大樹區","lng":"120.425003","is_island":false,"lat":"22.695141"},{"zip_code":"815","ship_id":"6400016","name":"大社區","lng":"120.338554","is_island":false,"lat":"22.731833"},{"zip_code":"814","ship_id":"6400017","name":"仁武區","lng":"120.339577","is_island":false,"lat":"22.703054"},{"zip_code":"833","ship_id":"6400018","name":"鳥松區","lng":"120.356277","is_island":false,"lat":"22.661583"},{"zip_code":"820","ship_id":"6400019","name":"岡山區","lng":"120.286926","is_island":false,"lat":"22.799101"},{"zip_code":"825","ship_id":"6400020","name":"橋頭區","lng":"120.297691","is_island":false,"lat":"22.759319"},{"zip_code":"824","ship_id":"6400021","name":"燕巢區","lng":"120.354004","is_island":false,"lat":"22.795113"},{"zip_code":"823","ship_id":"6400022","name":"田寮區","lng":"120.351334","is_island":false,"lat":"22.871588"},{"zip_code":"822","ship_id":"6400023","name":"阿蓮區","lng":"120.319237","is_island":false,"lat":"22.884886"},{"zip_code":"821","ship_id":"6400024","name":"路竹區","lng":"120.251175","is_island":false,"lat":"22.856394"},{"zip_code":"829","ship_id":"6400025","name":"湖內區","lng":"120.203644","is_island":false,"lat":"22.910131"},{"zip_code":"852","ship_id":"6400026","name":"茄萣區","lng":"120.174423","is_island":false,"lat":"22.908516"},{"zip_code":"828","ship_id":"6400027","name":"永安區","lng":"120.216194","is_island":false,"lat":"22.820017"},{"zip_code":"827","ship_id":"6400028","name":"彌陀區","lng":"120.242561","is_island":false,"lat":"22.783209"},{"zip_code":"826","ship_id":"6400029","name":"梓官區","lng":"120.259216","is_island":false,"lat":"22.762455"},{"zip_code":"842","ship_id":"6400030","name":"旗山區","lng":"120.475403","is_island":false,"lat":"22.890390"},{"zip_code":"843","ship_id":"6400031","name":"美濃區","lng":"120.533775","is_island":false,"lat":"22.896519"},{"zip_code":"844","ship_id":"6400032","name":"六龜區","lng":"120.624641","is_island":false,"lat":"23.000179"},{"zip_code":"847","ship_id":"6400033","name":"甲仙區","lng":"120.579811","is_island":false,"lat":"23.085825"},{"zip_code":"846","ship_id":"6400034","name":"杉林區","lng":"120.531929","is_island":false,"lat":"22.973536"},{"zip_code":"845","ship_id":"6400035","name":"內門區","lng":"120.454552","is_island":false,"lat":"22.944590"},{"zip_code":"851","ship_id":"6400036","name":"茂林區","lng":"120.655624","is_island":false,"lat":"22.888083"},{"zip_code":"848","ship_id":"6400037","name":"桃源區","lng":"120.756065","is_island":false,"lat":"23.161022"},{"zip_code":"849","ship_id":"6400038","name":"那瑪夏區","lng":"120.688698","is_island":false,"lat":"23.240034"},{"zip_code":"803","ship_id":"6400100","name":"鹽埕區","lng":"120.278709","is_island":false,"lat":"22.626497"},{"zip_code":"804","ship_id":"6400200","name":"鼓山區","lng":"120.273018","is_island":false,"lat":"22.638584"},{"zip_code":"813","ship_id":"6400300","name":"左營區","lng":"120.287033","is_island":false,"lat":"22.691595"},{"zip_code":"811","ship_id":"6400400","name":"楠梓區","lng":"120.318268","is_island":false,"lat":"22.730249"},{"zip_code":"807","ship_id":"6400500","name":"三民區","lng":"120.291740","is_island":false,"lat":"22.649368"},{"zip_code":"800","ship_id":"6400600","name":"新興區","lng":"120.301949","is_island":false,"lat":"22.632759"},{"zip_code":"801","ship_id":"6400700","name":"前金區","lng":"120.286148","is_island":false,"lat":"22.629185"},{"zip_code":"802","ship_id":"6400800","name":"苓雅區","lng":"120.304085","is_island":false,"lat":"22.623510"},{"zip_code":"806","ship_id":"6400900","name":"前鎮區","lng":"120.310242","is_island":false,"lat":"22.588331"},{"zip_code":"805","ship_id":"6401000","name":"旗津區","lng":"120.259857","is_island":false,"lat":"22.612669"},{"zip_code":"812","ship_id":"6401100","name":"小港區","lng":"120.330139","is_island":false,"lat":"22.567160"}]},{"id":"10013","name":"屏東縣","districs":[{"zip_code":"900","ship_id":"1001301","name":"屏東市","lng":"120.483391","is_island":false,"lat":"22.664236"},{"zip_code":"920","ship_id":"1001302","name":"潮州鎮","lng":"120.534889","is_island":false,"lat":"22.551628"},{"zip_code":"928","ship_id":"1001303","name":"東港鎮","lng":"120.446220","is_island":false,"lat":"22.468431"},{"zip_code":"946","ship_id":"1001304","name":"恆春鎮","lng":"120.739265","is_island":false,"lat":"22.005619"},{"zip_code":"913","ship_id":"1001305","name":"萬丹鄉","lng":"120.477051","is_island":false,"lat":"22.591255"},{"zip_code":"908","ship_id":"1001306","name":"長治鄉","lng":"120.519150","is_island":false,"lat":"22.678251"},{"zip_code":"909","ship_id":"1001307","name":"麟洛鄉","lng":"120.519035","is_island":false,"lat":"22.652336"},{"zip_code":"904","ship_id":"1001308","name":"九如鄉","lng":"120.482338","is_island":false,"lat":"22.742027"},{"zip_code":"905","ship_id":"1001309","name":"里港鄉","lng":"120.486412","is_island":false,"lat":"22.780914"},{"zip_code":"907","ship_id":"1001310","name":"鹽埔鄉","lng":"120.564629","is_island":false,"lat":"22.756189"},{"zip_code":"906","ship_id":"1001311","name":"高樹鄉","lng":"120.592255","is_island":false,"lat":"22.828306"},{"zip_code":"923","ship_id":"1001312","name":"萬巒鄉","lng":"120.559723","is_island":false,"lat":"22.574484"},{"zip_code":"912","ship_id":"1001313","name":"內埔鄉","lng":"120.558678","is_island":false,"lat":"22.613823"},{"zip_code":"911","ship_id":"1001314","name":"竹田鄉","lng":"120.535980","is_island":false,"lat":"22.586458"},{"zip_code":"925","ship_id":"1001315","name":"新埤鄉","lng":"120.541840","is_island":false,"lat":"22.471981"},{"zip_code":"940","ship_id":"1001316","name":"枋寮鄉","lng":"120.585442","is_island":false,"lat":"22.367264"},{"zip_code":"932","ship_id":"1001317","name":"新園鄉","lng":"120.453484","is_island":false,"lat":"22.545607"},{"zip_code":"924","ship_id":"1001318","name":"崁頂鄉","lng":"120.506050","is_island":false,"lat":"22.516479"},{"zip_code":"927","ship_id":"1001319","name":"林邊鄉","lng":"120.506256","is_island":false,"lat":"22.436710"},{"zip_code":"926","ship_id":"1001320","name":"南州鄉","lng":"120.501732","is_island":false,"lat":"22.492188"},{"zip_code":"931","ship_id":"1001321","name":"佳冬鄉","lng":"120.544388","is_island":false,"lat":"22.420984"},{"zip_code":"944","ship_id":"1001323","name":"車城鄉","lng":"120.706223","is_island":false,"lat":"22.075499"},{"zip_code":"947","ship_id":"1001324","name":"滿州鄉","lng":"120.830605","is_island":false,"lat":"22.022579"},{"zip_code":"941","ship_id":"1001325","name":"枋山鄉","lng":"120.644424","is_island":false,"lat":"22.265762"},{"zip_code":"901","ship_id":"1001326","name":"三地門鄉","lng":"120.646255","is_island":false,"lat":"22.718081"},{"zip_code":"902","ship_id":"1001327","name":"霧台鄉","lng":"120.720146","is_island":false,"lat":"22.750784"},{"zip_code":"903","ship_id":"1001328","name":"瑪家鄉","lng":"120.641304","is_island":false,"lat":"22.710287"},{"zip_code":"921","ship_id":"1001329","name":"泰武鄉","lng":"120.623795","is_island":false,"lat":"22.593632"},{"zip_code":"922","ship_id":"1001330","name":"來義鄉","lng":"120.623489","is_island":false,"lat":"22.527868"},{"zip_code":"942","ship_id":"1001331","name":"春日鄉","lng":"120.621033","is_island":false,"lat":"22.372740"},{"zip_code":"943","ship_id":"1001332","name":"獅子鄉","lng":"120.697395","is_island":false,"lat":"22.203535"},{"zip_code":"945","ship_id":"1001333","name":"牡丹鄉","lng":"120.766205","is_island":false,"lat":"22.128092"}]},{"id":"10014","name":"台東縣","districs":[{"zip_code":"950","ship_id":"1001401","name":"台東市","lng":"121.138672","is_island":false,"lat":"22.756487"},{"zip_code":"961","ship_id":"1001402","name":"成功鎮","lng":"121.371613","is_island":false,"lat":"23.102020"},{"zip_code":"956","ship_id":"1001403","name":"關山鎮","lng":"121.155014","is_island":false,"lat":"23.049215"},{"zip_code":"954","ship_id":"1001404","name":"卑南鄉","lng":"121.078957","is_island":false,"lat":"22.784340"},{"zip_code":"955","ship_id":"1001405","name":"鹿野鄉","lng":"121.128052","is_island":false,"lat":"22.916271"},{"zip_code":"958","ship_id":"1001406","name":"池上鄉","lng":"121.206955","is_island":false,"lat":"23.124023"},{"zip_code":"959","ship_id":"1001407","name":"東河鄉","lng":"121.294647","is_island":false,"lat":"22.970526"},{"zip_code":"962","ship_id":"1001408","name":"長濱鄉","lng":"121.443321","is_island":false,"lat":"23.316795"},{"zip_code":"963","ship_id":"1001409","name":"太麻里鄉","lng":"120.999557","is_island":false,"lat":"22.617287"},{"zip_code":"965","ship_id":"1001410","name":"大武鄉","lng":"120.882042","is_island":false,"lat":"22.342278"},{"zip_code":"957","ship_id":"1001412","name":"海端鄉","lng":"121.168579","is_island":false,"lat":"23.103786"},{"zip_code":"953","ship_id":"1001413","name":"延平鄉","lng":"121.077644","is_island":false,"lat":"22.904123"},{"zip_code":"964","ship_id":"1001414","name":"金峰鄉","lng":"120.952782","is_island":false,"lat":"22.596478"},{"zip_code":"966","ship_id":"1001415","name":"達仁鄉","lng":"120.874916","is_island":false,"lat":"22.298588"}]},{"id":"10015","name":"花蓮縣","districs":[{"zip_code":"970","ship_id":"1001501","name":"花蓮市","lng":"121.598640","is_island":false,"lat":"23.983896"},{"zip_code":"975","ship_id":"1001502","name":"鳳林鎮","lng":"121.443703","is_island":false,"lat":"23.746481"},{"zip_code":"981","ship_id":"1001503","name":"玉里鎮","lng":"121.307205","is_island":false,"lat":"23.337337"},{"zip_code":"971","ship_id":"1001504","name":"新城鄉","lng":"121.596230","is_island":false,"lat":"24.041258"},{"zip_code":"973","ship_id":"1001505","name":"吉安鄉","lng":"121.555542","is_island":false,"lat":"23.974770"},{"zip_code":"974","ship_id":"1001506","name":"壽豐鄉","lng":"121.500740","is_island":false,"lat":"23.872007"},{"zip_code":"976","ship_id":"1001507","name":"光復鄉","lng":"121.415123","is_island":false,"lat":"23.671122"},{"zip_code":"977","ship_id":"1001508","name":"豐濱鄉","lng":"121.513008","is_island":false,"lat":"23.603086"},{"zip_code":"978","ship_id":"1001509","name":"瑞穗鄉","lng":"121.367874","is_island":false,"lat":"23.498474"},{"zip_code":"983","ship_id":"1001510","name":"富里鄉","lng":"121.242134","is_island":false,"lat":"23.181219"},{"zip_code":"972","ship_id":"1001511","name":"秀林鄉","lng":"121.616737","is_island":false,"lat":"24.120562"},{"zip_code":"979","ship_id":"1001512","name":"萬榮鄉","lng":"121.402802","is_island":false,"lat":"23.716576"},{"zip_code":"982","ship_id":"1001513","name":"卓溪鄉","lng":"121.295349","is_island":false,"lat":"23.348269"}]}],"island_data":[{"id":"9007","name":"連江縣","districs":[{"zip_code":"209","ship_id":"900701","name":"南竿鄉","lng":"119.929306","is_island":true,"lat":"26.154203"},{"zip_code":"210","ship_id":"900702","name":"北竿鄉","lng":"119.988518","is_island":true,"lat":"26.226921"},{"zip_code":"211","ship_id":"900703","name":"莒光鄉","lng":"119.924583","is_island":true,"lat":"25.973551"},{"zip_code":"212","ship_id":"900704","name":"東引鄉","lng":"120.481583","is_island":true,"lat":"26.369152"}]},{"id":"10016","name":"澎湖縣","districs":[{"zip_code":"880","ship_id":"1001601","name":"馬公市","lng":"119.570663","is_island":true,"lat":"23.567554"},{"zip_code":"885","ship_id":"1001602","name":"湖西鄉","lng":"119.644585","is_island":true,"lat":"23.585360"},{"zip_code":"884","ship_id":"1001603","name":"白沙鄉","lng":"119.590500","is_island":true,"lat":"23.668240"},{"zip_code":"881","ship_id":"1001604","name":"西嶼鄉","lng":"119.498787","is_island":true,"lat":"23.602686"},{"zip_code":"882","ship_id":"1001605","name":"望安鄉","lng":"119.492355","is_island":true,"lat":"23.359118"},{"zip_code":"883","ship_id":"1001606","name":"七美鄉","lng":"119.416527","is_island":true,"lat":"23.208433"}]},{"id":"9020","name":"金門縣","districs":[{"zip_code":"893","ship_id":"902001","name":"金城鎮","lng":"118.312424","is_island":true,"lat":"24.434364"},{"zip_code":"890","ship_id":"902002","name":"金沙鎮","lng":"118.404953","is_island":true,"lat":"24.490562"},{"zip_code":"891","ship_id":"902003","name":"金湖鎮","lng":"118.408913","is_island":true,"lat":"24.443039"},{"zip_code":"892","ship_id":"902004","name":"金寧鄉","lng":"118.326698","is_island":true,"lat":"24.452557"},{"zip_code":"894","ship_id":"902005","name":"烈嶼鄉","lng":"118.236336","is_island":true,"lat":"24.431150"},{"zip_code":"896","ship_id":"902006","name":"烏坵鄉","lng":"119.445976","is_island":true,"lat":"24.992846"}]},{"id":"10013","name":"屏東縣","districs":[{"zip_code":"929","ship_id":"1001322","name":"琉球鄉","lng":"120.374245","is_island":true,"lat":"22.354778"}]},{"id":"10014","name":"台東縣","districs":[{"zip_code":"951","ship_id":"1001411","name":"綠島鄉","lng":"121.460480","is_island":true,"lat":"22.670721"},{"zip_code":"952","ship_id":"1001416","name":"蘭嶼鄉","lng":"121.501938","is_island":true,"lat":"22.058756"}]}],"data":[{"id":"63000","name":"台北市","districs":[{"zip_code":"105","ship_id":"6300100","name":"松山區","lng":"121.568985","is_island":false,"lat":"25.051607"},{"zip_code":"110","ship_id":"6300200","name":"信義區","lng":"121.558739","is_island":false,"lat":"25.035095"},{"zip_code":"106","ship_id":"6300300","name":"大安區","lng":"121.526398","is_island":false,"lat":"25.028248"},{"zip_code":"104","ship_id":"6300400","name":"中山區","lng":"121.525345","is_island":false,"lat":"25.066259"},{"zip_code":"100","ship_id":"6300500","name":"中正區","lng":"121.510063","is_island":false,"lat":"25.034069"},{"zip_code":"103","ship_id":"6300600","name":"大同區","lng":"121.507225","is_island":false,"lat":"25.068026"},{"zip_code":"108","ship_id":"6300700","name":"萬華區","lng":"121.491615","is_island":false,"lat":"25.036715"},{"zip_code":"116","ship_id":"6300800","name":"文山區","lng":"121.561760","is_island":false,"lat":"24.991364"},{"zip_code":"115","ship_id":"6300900","name":"南港區","lng":"121.598488","is_island":false,"lat":"25.056316"},{"zip_code":"114","ship_id":"6301000","name":"內湖區","lng":"121.580688","is_island":false,"lat":"25.071182"},{"zip_code":"111","ship_id":"6301100","name":"士林區","lng":"121.511459","is_island":false,"lat":"25.094612"},{"zip_code":"112","ship_id":"6301200","name":"北投區","lng":"121.494598","is_island":false,"lat":"25.134132"}]},{"id":"10017","name":"基隆市","districs":[{"zip_code":"202","ship_id":"1001701","name":"中正區","lng":"121.759354","is_island":false,"lat":"25.153191"},{"zip_code":"206","ship_id":"1001702","name":"七堵區","lng":"121.705025","is_island":false,"lat":"25.097645"},{"zip_code":"205","ship_id":"1001703","name":"暖暖區","lng":"121.727654","is_island":false,"lat":"25.101908"},{"zip_code":"200","ship_id":"1001704","name":"仁愛區","lng":"121.732590","is_island":false,"lat":"25.129442"},{"zip_code":"203","ship_id":"1001705","name":"中山區","lng":"121.721458","is_island":false,"lat":"25.154739"},{"zip_code":"204","ship_id":"1001706","name":"安樂區","lng":"121.715042","is_island":false,"lat":"25.122816"},{"zip_code":"201","ship_id":"1001707","name":"信義區","lng":"121.743103","is_island":false,"lat":"25.131325"}]},{"id":"9007","name":"連江縣","districs":[{"zip_code":"209","ship_id":"900701","name":"南竿鄉","lng":"119.929306","is_island":true,"lat":"26.154203"},{"zip_code":"210","ship_id":"900702","name":"北竿鄉","lng":"119.988518","is_island":true,"lat":"26.226921"},{"zip_code":"211","ship_id":"900703","name":"莒光鄉","lng":"119.924583","is_island":true,"lat":"25.973551"},{"zip_code":"212","ship_id":"900704","name":"東引鄉","lng":"120.481583","is_island":true,"lat":"26.369152"}]},{"id":"65000","name":"新北市","districs":[{"zip_code":"220","ship_id":"6500001","name":"板橋區","lng":"121.450890","is_island":false,"lat":"25.011539"},{"zip_code":"241","ship_id":"6500002","name":"三重區","lng":"121.480103","is_island":false,"lat":"25.062727"},{"zip_code":"235","ship_id":"6500003","name":"中和區","lng":"121.492790","is_island":false,"lat":"25.000439"},{"zip_code":"234","ship_id":"6500004","name":"永和區","lng":"121.511986","is_island":false,"lat":"25.010925"},{"zip_code":"248","ship_id":"6500005","name":"新莊區","lng":"121.442337","is_island":false,"lat":"25.037647"},{"zip_code":"231","ship_id":"6500006","name":"新店區","lng":"121.533394","is_island":false,"lat":"24.969154"},{"zip_code":"238","ship_id":"6500007","name":"樹林區","lng":"121.416595","is_island":false,"lat":"24.991747"},{"zip_code":"239","ship_id":"6500008","name":"鶯歌區","lng":"121.346153","is_island":false,"lat":"24.957830"},{"zip_code":"237","ship_id":"6500009","name":"三峽區","lng":"121.370457","is_island":false,"lat":"24.934808"},{"zip_code":"251","ship_id":"6500010","name":"淡水區","lng":"121.433022","is_island":false,"lat":"25.171349"},{"zip_code":"221","ship_id":"6500011","name":"汐止區","lng":"121.650742","is_island":false,"lat":"25.065596"},{"zip_code":"224","ship_id":"6500012","name":"瑞芳區","lng":"121.801750","is_island":false,"lat":"25.110676"},{"zip_code":"236","ship_id":"6500013","name":"土城區","lng":"121.434708","is_island":false,"lat":"24.974167"},{"zip_code":"247","ship_id":"6500014","name":"蘆洲區","lng":"121.465660","is_island":false,"lat":"25.086664"},{"zip_code":"248","ship_id":"6500015","name":"五股區","lng":"121.429695","is_island":false,"lat":"25.084970"},{"zip_code":"243","ship_id":"6500016","name":"泰山區","lng":"121.423294","is_island":false,"lat":"25.061123"},{"zip_code":"244","ship_id":"6500017","name":"林口區","lng":"121.380577","is_island":false,"lat":"25.078714"},{"zip_code":"222","ship_id":"6500018","name":"深坑區","lng":"121.607651","is_island":false,"lat":"25.004227"},{"zip_code":"223","ship_id":"6500019","name":"石碇區","lng":"121.649704","is_island":false,"lat":"24.993298"},{"zip_code":"232","ship_id":"6500020","name":"坪林區","lng":"121.703583","is_island":false,"lat":"24.937916"},{"zip_code":"252","ship_id":"6500021","name":"三芝區","lng":"121.492653","is_island":false,"lat":"25.259569"},{"zip_code":"253","ship_id":"6500022","name":"石門區","lng":"121.559410","is_island":false,"lat":"25.293055"},{"zip_code":"249","ship_id":"6500023","name":"八里區","lng":"121.393242","is_island":false,"lat":"25.151167"},{"zip_code":"226","ship_id":"6500024","name":"平溪區","lng":"121.729965","is_island":false,"lat":"25.028399"},{"zip_code":"227","ship_id":"6500025","name":"雙溪區","lng":"121.857552","is_island":false,"lat":"25.035583"},{"zip_code":"228","ship_id":"6500026","name":"貢寮區","lng":"121.902069","is_island":false,"lat":"25.023640"},{"zip_code":"208","ship_id":"6500027","name":"金山區","lng":"121.628342","is_island":false,"lat":"25.224161"},{"zip_code":"207","ship_id":"6500028","name":"萬里區","lng":"121.681366","is_island":false,"lat":"25.179817"},{"zip_code":"233","ship_id":"6500029","name":"烏來區","lng":"121.539955","is_island":false,"lat":"24.873686"}]},{"id":"10002","name":"宜蘭縣","districs":[{"zip_code":"260","ship_id":"1000201","name":"宜蘭市","lng":"121.745087","is_island":false,"lat":"24.753708"},{"zip_code":"265","ship_id":"1000202","name":"羅東鎮","lng":"121.758766","is_island":false,"lat":"24.678673"},{"zip_code":"270","ship_id":"1000203","name":"蘇澳鎮","lng":"121.833839","is_island":false,"lat":"24.596231"},{"zip_code":"261","ship_id":"1000204","name":"頭城鎮","lng":"121.815262","is_island":false,"lat":"24.861073"},{"zip_code":"262","ship_id":"1000205","name":"礁溪鄉","lng":"121.763168","is_island":false,"lat":"24.825321"},{"zip_code":"263","ship_id":"1000206","name":"壯圍鄉","lng":"121.777412","is_island":false,"lat":"24.748707"},{"zip_code":"264","ship_id":"1000207","name":"員山鄉","lng":"121.715126","is_island":false,"lat":"24.745270"},{"zip_code":"269","ship_id":"1000208","name":"冬山鄉","lng":"121.784012","is_island":false,"lat":"24.636322"},{"zip_code":"268","ship_id":"1000209","name":"五結鄉","lng":"121.790085","is_island":false,"lat":"24.686573"},{"zip_code":"266","ship_id":"1000210","name":"三星鄉","lng":"121.645668","is_island":false,"lat":"24.667368"},{"zip_code":"267","ship_id":"1000211","name":"大同鄉","lng":"121.601059","is_island":false,"lat":"24.679026"},{"zip_code":"272","ship_id":"1000212","name":"南澳鄉","lng":"121.795906","is_island":false,"lat":"24.467878"}]},{"id":"10018","name":"新竹市","districs":[{"zip_code":"300","ship_id":"1001801","name":"東區","lng":"120.965302","is_island":false,"lat":"24.806995"},{"zip_code":"300","ship_id":"1001802","name":"北區","lng":"120.962112","is_island":false,"lat":"24.818110"},{"zip_code":"300","ship_id":"1001803","name":"香山區","lng":"120.933769","is_island":false,"lat":"24.798788"}]},{"id":"10004","name":"新竹縣","districs":[{"zip_code":"302","ship_id":"1000401","name":"竹北市","lng":"120.995697","is_island":false,"lat":"24.841246"},{"zip_code":"310","ship_id":"1000402","name":"竹東鎮","lng":"121.083534","is_island":false,"lat":"24.738499"},{"zip_code":"305","ship_id":"1000403","name":"新埔鎮","lng":"121.063087","is_island":false,"lat":"24.829659"},{"zip_code":"306","ship_id":"1000404","name":"關西鎮","lng":"121.167610","is_island":false,"lat":"24.794170"},{"zip_code":"303","ship_id":"1000405","name":"湖口鄉","lng":"121.039803","is_island":false,"lat":"24.902695"},{"zip_code":"304","ship_id":"1000406","name":"新豐鄉","lng":"120.977257","is_island":false,"lat":"24.902527"},{"zip_code":"307","ship_id":"1000407","name":"芎林鄉","lng":"121.073662","is_island":false,"lat":"24.775089"},{"zip_code":"312","ship_id":"1000408","name":"橫山鄉","lng":"121.133286","is_island":false,"lat":"24.718599"},{"zip_code":"314","ship_id":"1000409","name":"北埔鄉","lng":"121.048233","is_island":false,"lat":"24.703730"},{"zip_code":"308","ship_id":"1000410","name":"寶山鄉","lng":"120.982971","is_island":false,"lat":"24.767366"},{"zip_code":"315","ship_id":"1000411","name":"峨眉鄉","lng":"121.011375","is_island":false,"lat":"24.690531"},{"zip_code":"313","ship_id":"1000412","name":"尖石鄉","lng":"121.193275","is_island":false,"lat":"24.706999"},{"zip_code":"311","ship_id":"1000413","name":"五峰鄉","lng":"121.111359","is_island":false,"lat":"24.633917"}]},{"id":"10003","name":"桃園市","districs":[{"zip_code":"330","ship_id":"1000301","name":"桃園區","lng":"121.293449","is_island":false,"lat":"24.995720"},{"zip_code":"320","ship_id":"1000302","name":"中壢區","lng":"121.216919","is_island":false,"lat":"24.967495"},{"zip_code":"335","ship_id":"1000303","name":"大溪區","lng":"121.278915","is_island":false,"lat":"24.882288"},{"zip_code":"326","ship_id":"1000304","name":"楊梅區","lng":"121.137642","is_island":false,"lat":"24.909367"},{"zip_code":"338","ship_id":"1000305","name":"蘆竹區","lng":"121.287056","is_island":false,"lat":"25.048746"},{"zip_code":"337","ship_id":"1000306","name":"大園區","lng":"121.187248","is_island":false,"lat":"25.065701"},{"zip_code":"333","ship_id":"1000307","name":"龜山區","lng":"121.329689","is_island":false,"lat":"24.994329"},{"zip_code":"334","ship_id":"1000308","name":"八德區","lng":"121.276398","is_island":false,"lat":"24.930719"},{"zip_code":"325","ship_id":"1000309","name":"龍潭區","lng":"121.208336","is_island":false,"lat":"24.865807"},{"zip_code":"324","ship_id":"1000310","name":"平鎮區","lng":"121.209999","is_island":false,"lat":"24.947382"},{"zip_code":"327","ship_id":"1000311","name":"新屋區","lng":"121.097321","is_island":false,"lat":"24.974325"},{"zip_code":"328","ship_id":"1000312","name":"觀音區","lng":"121.073654","is_island":false,"lat":"25.038202"},{"zip_code":"336","ship_id":"1000313","name":"復興區","lng":"121.343407","is_island":false,"lat":"24.820341"}]},{"id":"10005","name":"苗栗縣","districs":[{"zip_code":"360","ship_id":"1000501","name":"苗栗市","lng":"120.810966","is_island":false,"lat":"24.563328"},{"zip_code":"358","ship_id":"1000502","name":"苑裡鎮","lng":"120.644958","is_island":false,"lat":"24.441422"},{"zip_code":"357","ship_id":"1000503","name":"通霄鎮","lng":"120.676109","is_island":false,"lat":"24.493071"},{"zip_code":"350","ship_id":"1000504","name":"竹南鎮","lng":"120.865295","is_island":false,"lat":"24.685652"},{"zip_code":"351","ship_id":"1000505","name":"頭份鎮","lng":"120.904762","is_island":false,"lat":"24.687918"},{"zip_code":"356","ship_id":"1000506","name":"後龍鎮","lng":"120.783844","is_island":false,"lat":"24.615429"},{"zip_code":"369","ship_id":"1000507","name":"卓蘭鎮","lng":"120.816399","is_island":false,"lat":"24.314650"},{"zip_code":"364","ship_id":"1000508","name":"大湖鄉","lng":"120.857994","is_island":false,"lat":"24.425184"},{"zip_code":"363","ship_id":"1000509","name":"公館鄉","lng":"120.820313","is_island":false,"lat":"24.507572"},{"zip_code":"366","ship_id":"1000510","name":"銅鑼鄉","lng":"120.779671","is_island":false,"lat":"24.488750"},{"zip_code":"353","ship_id":"1000511","name":"南庄鄉","lng":"120.992180","is_island":false,"lat":"24.598866"},{"zip_code":"362","ship_id":"1000512","name":"頭屋鄉","lng":"120.842911","is_island":false,"lat":"24.579517"},{"zip_code":"367","ship_id":"1000513","name":"三義鄉","lng":"120.762009","is_island":false,"lat":"24.414619"},{"zip_code":"368","ship_id":"1000514","name":"西湖鄉","lng":"120.749168","is_island":false,"lat":"24.558384"},{"zip_code":"361","ship_id":"1000515","name":"造橋鄉","lng":"120.857269","is_island":false,"lat":"24.640182"},{"zip_code":"352","ship_id":"1000516","name":"三灣鄉","lng":"120.948624","is_island":false,"lat":"24.654905"},{"zip_code":"354","ship_id":"1000517","name":"獅潭鄉","lng":"120.911903","is_island":false,"lat":"24.541315"},{"zip_code":"365","ship_id":"1000518","name":"泰安鄉","lng":"120.899780","is_island":false,"lat":"24.448973"}]},{"id":"66000","name":"台中市","districs":[{"zip_code":"400","ship_id":"6600001","name":"中區","lng":"120.671242","is_island":false,"lat":"24.145697"},{"zip_code":"401","ship_id":"6600002","name":"東區","lng":"120.695503","is_island":false,"lat":"24.138430"},{"zip_code":"402","ship_id":"6600003","name":"南區","lng":"120.655670","is_island":false,"lat":"24.118841"},{"zip_code":"403","ship_id":"6600004","name":"西區","lng":"120.662949","is_island":false,"lat":"24.142918"},{"zip_code":"404","ship_id":"6600005","name":"北區","lng":"120.673950","is_island":false,"lat":"24.167747"},{"zip_code":"407","ship_id":"6600006","name":"西屯區","lng":"120.625580","is_island":false,"lat":"24.167276"},{"zip_code":"408","ship_id":"6600007","name":"南屯區","lng":"120.634644","is_island":false,"lat":"24.140057"},{"zip_code":"406","ship_id":"6600008","name":"北屯區","lng":"120.678368","is_island":false,"lat":"24.184731"},{"zip_code":"420","ship_id":"6600009","name":"豐原區","lng":"120.710007","is_island":false,"lat":"24.243893"},{"zip_code":"423","ship_id":"6600010","name":"東勢區","lng":"120.819756","is_island":false,"lat":"24.260328"},{"zip_code":"437","ship_id":"6600011","name":"大甲區","lng":"120.614296","is_island":false,"lat":"24.350838"},{"zip_code":"436","ship_id":"6600012","name":"清水區","lng":"120.551628","is_island":false,"lat":"24.270172"},{"zip_code":"433","ship_id":"6600013","name":"沙鹿區","lng":"120.558136","is_island":false,"lat":"24.235085"},{"zip_code":"435","ship_id":"6600014","name":"梧棲區","lng":"120.523705","is_island":false,"lat":"24.256657"},{"zip_code":"421","ship_id":"6600015","name":"后里區","lng":"120.702576","is_island":false,"lat":"24.306704"},{"zip_code":"429","ship_id":"6600016","name":"神岡區","lng":"120.653229","is_island":false,"lat":"24.259569"},{"zip_code":"427","ship_id":"6600017","name":"潭子區","lng":"120.696999","is_island":false,"lat":"24.211248"},{"zip_code":"428","ship_id":"6600018","name":"大雅區","lng":"120.639648","is_island":false,"lat":"24.230892"},{"zip_code":"426","ship_id":"6600019","name":"新社區","lng":"120.801407","is_island":false,"lat":"24.235529"},{"zip_code":"422","ship_id":"6600020","name":"石岡區","lng":"120.771889","is_island":false,"lat":"24.276691"},{"zip_code":"438","ship_id":"6600021","name":"外埔區","lng":"120.646210","is_island":false,"lat":"24.333797"},{"zip_code":"439","ship_id":"6600022","name":"大安區","lng":"120.578369","is_island":false,"lat":"24.347963"},{"zip_code":"414","ship_id":"6600023","name":"烏日區","lng":"120.615585","is_island":false,"lat":"24.106527"},{"zip_code":"432","ship_id":"6600024","name":"大肚區","lng":"120.537575","is_island":false,"lat":"24.152887"},{"zip_code":"434","ship_id":"6600025","name":"龍井區","lng":"120.537628","is_island":false,"lat":"24.194294"},{"zip_code":"413","ship_id":"6600026","name":"霧峰區","lng":"120.691956","is_island":false,"lat":"24.062819"},{"zip_code":"411","ship_id":"6600027","name":"太平區","lng":"120.710205","is_island":false,"lat":"24.128151"},{"zip_code":"412","ship_id":"6600028","name":"大里區","lng":"120.669502","is_island":false,"lat":"24.101152"},{"zip_code":"424","ship_id":"6600029","name":"和平區","lng":"120.875458","is_island":false,"lat":"24.176580"}]},{"id":"10007","name":"彰化縣","districs":[{"zip_code":"500","ship_id":"1000701","name":"彰化市","lng":"120.534058","is_island":false,"lat":"24.082575"},{"zip_code":"505","ship_id":"1000702","name":"鹿港鎮","lng":"120.426903","is_island":false,"lat":"24.058958"},{"zip_code":"508","ship_id":"1000703","name":"和美鎮","lng":"120.486076","is_island":false,"lat":"24.110231"},{"zip_code":"507","ship_id":"1000704","name":"線西鄉","lng":"120.462578","is_island":false,"lat":"24.132324"},{"zip_code":"509","ship_id":"1000705","name":"伸港鄉","lng":"120.478035","is_island":false,"lat":"24.161568"},{"zip_code":"506","ship_id":"1000706","name":"福興鄉","lng":"120.435722","is_island":false,"lat":"24.049723"},{"zip_code":"504","ship_id":"1000707","name":"秀水鄉","lng":"120.494705","is_island":false,"lat":"24.037016"},{"zip_code":"503","ship_id":"1000708","name":"花壇鄉","lng":"120.530106","is_island":false,"lat":"24.031359"},{"zip_code":"502","ship_id":"1000709","name":"芬園鄉","lng":"120.620811","is_island":false,"lat":"24.015385"},{"zip_code":"510","ship_id":"1000710","name":"員林鎮","lng":"120.566223","is_island":false,"lat":"23.960810"},{"zip_code":"514","ship_id":"1000711","name":"溪湖鎮","lng":"120.475410","is_island":false,"lat":"23.967903"},{"zip_code":"520","ship_id":"1000712","name":"田中鎮","lng":"120.572807","is_island":false,"lat":"23.863241"},{"zip_code":"515","ship_id":"1000713","name":"大村鄉","lng":"120.539116","is_island":false,"lat":"23.995174"},{"zip_code":"516","ship_id":"1000714","name":"埔鹽鄉","lng":"120.455429","is_island":false,"lat":"24.002037"},{"zip_code":"513","ship_id":"1000715","name":"埔心鄉","lng":"120.535393","is_island":false,"lat":"23.954739"},{"zip_code":"512","ship_id":"1000716","name":"永靖鄉","lng":"120.539589","is_island":false,"lat":"23.926422"},{"zip_code":"511","ship_id":"1000717","name":"社頭鄉","lng":"120.577713","is_island":false,"lat":"23.898478"},{"zip_code":"530","ship_id":"1000718","name":"二水鄉","lng":"120.610779","is_island":false,"lat":"23.808357"},{"zip_code":"521","ship_id":"1000719","name":"北斗鎮","lng":"120.513687","is_island":false,"lat":"23.863300"},{"zip_code":"526","ship_id":"1000720","name":"二林鎮","lng":"120.366226","is_island":false,"lat":"23.901470"},{"zip_code":"522","ship_id":"1000721","name":"田尾鄉","lng":"120.517799","is_island":false,"lat":"23.893948"},{"zip_code":"523","ship_id":"1000722","name":"埤頭鄉","lng":"120.454041","is_island":false,"lat":"23.893303"},{"zip_code":"528","ship_id":"1000723","name":"芳苑鄉","lng":"120.312202","is_island":false,"lat":"23.926058"},{"zip_code":"527","ship_id":"1000724","name":"大城鄉","lng":"120.312813","is_island":false,"lat":"23.854033"},{"zip_code":"525","ship_id":"1000725","name":"竹塘鄉","lng":"120.419724","is_island":false,"lat":"23.862200"},{"zip_code":"524","ship_id":"1000726","name":"溪州鄉","lng":"120.490936","is_island":false,"lat":"23.853449"}]},{"id":"10008","name":"南投縣","districs":[{"zip_code":"540","ship_id":"1000801","name":"南投市","lng":"120.679245","is_island":false,"lat":"23.913301"},{"zip_code":"545","ship_id":"1000802","name":"埔里鎮","lng":"120.961060","is_island":false,"lat":"23.968307"},{"zip_code":"542","ship_id":"1000803","name":"草屯鎮","lng":"120.672119","is_island":false,"lat":"23.975548"},{"zip_code":"557","ship_id":"1000804","name":"竹山鎮","lng":"120.663292","is_island":false,"lat":"23.759415"},{"zip_code":"552","ship_id":"1000805","name":"集集鎮","lng":"120.778404","is_island":false,"lat":"23.830193"},{"zip_code":"551","ship_id":"1000806","name":"名間鄉","lng":"120.694923","is_island":false,"lat":"23.840067"},{"zip_code":"558","ship_id":"1000807","name":"鹿谷鄉","lng":"120.745438","is_island":false,"lat":"23.747355"},{"zip_code":"541","ship_id":"1000808","name":"中寮鄉","lng":"120.758026","is_island":false,"lat":"23.880735"},{"zip_code":"555","ship_id":"1000809","name":"魚池鄉","lng":"120.927498","is_island":false,"lat":"23.897526"},{"zip_code":"544","ship_id":"1000810","name":"國姓鄉","lng":"120.849274","is_island":false,"lat":"24.041861"},{"zip_code":"553","ship_id":"1000811","name":"水里鄉","lng":"120.847771","is_island":false,"lat":"23.813070"},{"zip_code":"556","ship_id":"1000812","name":"信義鄉","lng":"120.846436","is_island":false,"lat":"23.698586"},{"zip_code":"546","ship_id":"1000813","name":"仁愛鄉","lng":"121.124146","is_island":false,"lat":"24.023226"}]},{"id":"10020","name":"嘉義市","districs":[{"zip_code":"600","ship_id":"1002001","name":"東區","lng":"120.445358","is_island":false,"lat":"23.480385"},{"zip_code":"600","ship_id":"1002002","name":"西區","lng":"120.427284","is_island":false,"lat":"23.466267"}]},{"id":"10010","name":"嘉義縣","districs":[{"zip_code":"612","ship_id":"1001001","name":"太保市","lng":"120.323990","is_island":false,"lat":"23.460226"},{"zip_code":"613","ship_id":"1001002","name":"朴子市","lng":"120.238914","is_island":false,"lat":"23.466887"},{"zip_code":"625","ship_id":"1001003","name":"布袋鎮","lng":"120.158836","is_island":false,"lat":"23.379782"},{"zip_code":"622","ship_id":"1001004","name":"大林鎮","lng":"120.463051","is_island":false,"lat":"23.605679"},{"zip_code":"621","ship_id":"1001005","name":"民雄鄉","lng":"120.420387","is_island":false,"lat":"23.553198"},{"zip_code":"623","ship_id":"1001006","name":"溪口鄉","lng":"120.384186","is_island":false,"lat":"23.604305"},{"zip_code":"616","ship_id":"1001007","name":"新港鄉","lng":"120.339340","is_island":false,"lat":"23.553823"},{"zip_code":"615","ship_id":"1001008","name":"六腳鄉","lng":"120.283646","is_island":false,"lat":"23.494917"},{"zip_code":"614","ship_id":"1001009","name":"東石鄉","lng":"120.145576","is_island":false,"lat":"23.460548"},{"zip_code":"624","ship_id":"1001010","name":"義竹鄉","lng":"120.235184","is_island":false,"lat":"23.337967"},{"zip_code":"611","ship_id":"1001011","name":"鹿草鄉","lng":"120.300133","is_island":false,"lat":"23.413118"},{"zip_code":"608","ship_id":"1001012","name":"水上鄉","lng":"120.390068","is_island":false,"lat":"23.430202"},{"zip_code":"606","ship_id":"1001013","name":"中埔鄉","lng":"120.514832","is_island":false,"lat":"23.426785"},{"zip_code":"604","ship_id":"1001014","name":"竹崎鄉","lng":"120.543266","is_island":false,"lat":"23.524746"},{"zip_code":"603","ship_id":"1001015","name":"梅山鄉","lng":"120.547615","is_island":false,"lat":"23.586662"},{"zip_code":"602","ship_id":"1001016","name":"番路鄉","lng":"120.545952","is_island":false,"lat":"23.466255"},{"zip_code":"607","ship_id":"1001017","name":"大埔鄉","lng":"120.585648","is_island":false,"lat":"23.296602"},{"zip_code":"605","ship_id":"1001018","name":"阿里山鄉","lng":"120.705330","is_island":false,"lat":"23.473192"}]},{"id":"10009","name":"雲林縣","districs":[{"zip_code":"640","ship_id":"1000901","name":"斗六市","lng":"120.518875","is_island":false,"lat":"23.698833"},{"zip_code":"630","ship_id":"1000902","name":"斗南鎮","lng":"120.469513","is_island":false,"lat":"23.681730"},{"zip_code":"632","ship_id":"1000903","name":"虎尾鎮","lng":"120.437172","is_island":false,"lat":"23.709999"},{"zip_code":"648","ship_id":"1000904","name":"西螺鎮","lng":"120.457504","is_island":false,"lat":"23.799496"},{"zip_code":"633","ship_id":"1000905","name":"土庫鎮","lng":"120.384315","is_island":false,"lat":"23.679602"},{"zip_code":"651","ship_id":"1000906","name":"北港鎮","lng":"120.294266","is_island":false,"lat":"23.577747"},{"zip_code":"646","ship_id":"1000907","name":"古坑鄉","lng":"120.553894","is_island":false,"lat":"23.644554"},{"zip_code":"631","ship_id":"1000908","name":"大埤鄉","lng":"120.423225","is_island":false,"lat":"23.647545"},{"zip_code":"647","ship_id":"1000909","name":"莿桐鄉","lng":"120.494331","is_island":false,"lat":"23.762787"},{"zip_code":"643","ship_id":"1000910","name":"林內鄉","lng":"120.604752","is_island":false,"lat":"23.757915"},{"zip_code":"649","ship_id":"1000911","name":"二崙鄉","lng":"120.404694","is_island":false,"lat":"23.772884"},{"zip_code":"637","ship_id":"1000912","name":"崙背鄉","lng":"120.350990","is_island":false,"lat":"23.764181"},{"zip_code":"638","ship_id":"1000913","name":"麥寮鄉","lng":"120.243507","is_island":false,"lat":"23.755569"},{"zip_code":"635","ship_id":"1000914","name":"東勢鄉","lng":"120.244476","is_island":false,"lat":"23.676785"},{"zip_code":"634","ship_id":"1000915","name":"褒忠鄉","lng":"120.295258","is_island":false,"lat":"23.692846"},{"zip_code":"636","ship_id":"1000916","name":"台西鄉","lng":"120.188698","is_island":false,"lat":"23.702154"},{"zip_code":"655","ship_id":"1000917","name":"元長鄉","lng":"120.307022","is_island":false,"lat":"23.651428"},{"zip_code":"654","ship_id":"1000918","name":"四湖鄉","lng":"120.216316","is_island":false,"lat":"23.639900"},{"zip_code":"653","ship_id":"1000919","name":"口湖鄉","lng":"120.177330","is_island":false,"lat":"23.584236"},{"zip_code":"652","ship_id":"1000920","name":"水林鄉","lng":"120.237991","is_island":false,"lat":"23.574572"}]},{"id":"67000","name":"台南市","districs":[{"zip_code":"730","ship_id":"6700001","name":"新營區","lng":"120.308434","is_island":false,"lat":"23.311831"},{"zip_code":"737","ship_id":"6700002","name":"鹽水區","lng":"120.258080","is_island":false,"lat":"23.321798"},{"zip_code":"732","ship_id":"6700003","name":"白河區","lng":"120.407532","is_island":false,"lat":"23.353102"},{"zip_code":"736","ship_id":"6700004","name":"柳營區","lng":"120.303703","is_island":false,"lat":"23.280281"},{"zip_code":"731","ship_id":"6700005","name":"後壁區","lng":"120.353188","is_island":false,"lat":"23.367849"},{"zip_code":"733","ship_id":"6700006","name":"東山區","lng":"120.396431","is_island":false,"lat":"23.327871"},{"zip_code":"721","ship_id":"6700007","name":"麻豆區","lng":"120.250389","is_island":false,"lat":"23.186699"},{"zip_code":"735","ship_id":"6700008","name":"下營區","lng":"120.256233","is_island":false,"lat":"23.237385"},{"zip_code":"734","ship_id":"6700009","name":"六甲區","lng":"120.339355","is_island":false,"lat":"23.233521"},{"zip_code":"720","ship_id":"6700010","name":"官田區","lng":"120.307228","is_island":false,"lat":"23.194992"},{"zip_code":"742","ship_id":"6700011","name":"大內區","lng":"120.348869","is_island":false,"lat":"23.120705"},{"zip_code":"722","ship_id":"6700012","name":"佳里區","lng":"120.168968","is_island":false,"lat":"23.167042"},{"zip_code":"726","ship_id":"6700013","name":"學甲區","lng":"120.174232","is_island":false,"lat":"23.232162"},{"zip_code":"723","ship_id":"6700014","name":"西港區","lng":"120.195381","is_island":false,"lat":"23.124741"},{"zip_code":"724","ship_id":"6700015","name":"七股區","lng":"120.131325","is_island":false,"lat":"23.142471"},{"zip_code":"725","ship_id":"6700016","name":"將軍區","lng":"120.150612","is_island":false,"lat":"23.200645"},{"zip_code":"727","ship_id":"6700017","name":"北門區","lng":"120.117302","is_island":false,"lat":"23.269539"},{"zip_code":"712","ship_id":"6700018","name":"新化區","lng":"120.302795","is_island":false,"lat":"23.040281"},{"zip_code":"741","ship_id":"6700019","name":"善化區","lng":"120.288635","is_island":false,"lat":"23.134077"},{"zip_code":"744","ship_id":"6700020","name":"新市區","lng":"120.286964","is_island":false,"lat":"23.080673"},{"zip_code":"745","ship_id":"6700021","name":"安定區","lng":"120.228928","is_island":false,"lat":"23.123266"},{"zip_code":"743","ship_id":"6700022","name":"山上區","lng":"120.344482","is_island":false,"lat":"23.105318"},{"zip_code":"714","ship_id":"6700023","name":"玉井區","lng":"120.452019","is_island":false,"lat":"23.125486"},{"zip_code":"715","ship_id":"6700024","name":"楠西區","lng":"120.478264","is_island":false,"lat":"23.175871"},{"zip_code":"716","ship_id":"6700025","name":"南化區","lng":"120.469696","is_island":false,"lat":"23.044758"},{"zip_code":"713","ship_id":"6700026","name":"左鎮區","lng":"120.400658","is_island":false,"lat":"23.058657"},{"zip_code":"717","ship_id":"6700027","name":"仁德區","lng":"120.243591","is_island":false,"lat":"22.974167"},{"zip_code":"711","ship_id":"6700028","name":"歸仁區","lng":"120.285789","is_island":false,"lat":"22.968752"},{"zip_code":"718","ship_id":"6700029","name":"關廟區","lng":"120.319710","is_island":false,"lat":"22.964584"},{"zip_code":"719","ship_id":"6700030","name":"龍崎區","lng":"120.356743","is_island":false,"lat":"22.965160"},{"zip_code":"710","ship_id":"6700031","name":"永康區","lng":"120.248886","is_island":false,"lat":"23.027864"},{"zip_code":"701","ship_id":"6700032","name":"東區","lng":"120.215912","is_island":false,"lat":"22.981955"},{"zip_code":"702","ship_id":"6700033","name":"南區","lng":"120.180565","is_island":false,"lat":"22.962938"},{"zip_code":"704","ship_id":"6700034","name":"北區","lng":"120.194801","is_island":false,"lat":"23.001415"},{"zip_code":"709","ship_id":"6700035","name":"安南區","lng":"120.176613","is_island":false,"lat":"23.048965"},{"zip_code":"708","ship_id":"6700036","name":"安平區","lng":"120.160416","is_island":false,"lat":"22.996393"},{"zip_code":"700","ship_id":"6700037","name":"中西區","lng":"120.197594","is_island":false,"lat":"22.994043"}]},{"id":"64000","name":"高雄市","districs":[{"zip_code":"830","ship_id":"6400012","name":"鳳山區","lng":"120.354324","is_island":false,"lat":"22.628950"},{"zip_code":"832","ship_id":"6400013","name":"林園區","lng":"120.386711","is_island":false,"lat":"22.509735"},{"zip_code":"831","ship_id":"6400014","name":"大寮區","lng":"120.387428","is_island":false,"lat":"22.607134"},{"zip_code":"840","ship_id":"6400015","name":"大樹區","lng":"120.425003","is_island":false,"lat":"22.695141"},{"zip_code":"815","ship_id":"6400016","name":"大社區","lng":"120.338554","is_island":false,"lat":"22.731833"},{"zip_code":"814","ship_id":"6400017","name":"仁武區","lng":"120.339577","is_island":false,"lat":"22.703054"},{"zip_code":"833","ship_id":"6400018","name":"鳥松區","lng":"120.356277","is_island":false,"lat":"22.661583"},{"zip_code":"820","ship_id":"6400019","name":"岡山區","lng":"120.286926","is_island":false,"lat":"22.799101"},{"zip_code":"825","ship_id":"6400020","name":"橋頭區","lng":"120.297691","is_island":false,"lat":"22.759319"},{"zip_code":"824","ship_id":"6400021","name":"燕巢區","lng":"120.354004","is_island":false,"lat":"22.795113"},{"zip_code":"823","ship_id":"6400022","name":"田寮區","lng":"120.351334","is_island":false,"lat":"22.871588"},{"zip_code":"822","ship_id":"6400023","name":"阿蓮區","lng":"120.319237","is_island":false,"lat":"22.884886"},{"zip_code":"821","ship_id":"6400024","name":"路竹區","lng":"120.251175","is_island":false,"lat":"22.856394"},{"zip_code":"829","ship_id":"6400025","name":"湖內區","lng":"120.203644","is_island":false,"lat":"22.910131"},{"zip_code":"852","ship_id":"6400026","name":"茄萣區","lng":"120.174423","is_island":false,"lat":"22.908516"},{"zip_code":"828","ship_id":"6400027","name":"永安區","lng":"120.216194","is_island":false,"lat":"22.820017"},{"zip_code":"827","ship_id":"6400028","name":"彌陀區","lng":"120.242561","is_island":false,"lat":"22.783209"},{"zip_code":"826","ship_id":"6400029","name":"梓官區","lng":"120.259216","is_island":false,"lat":"22.762455"},{"zip_code":"842","ship_id":"6400030","name":"旗山區","lng":"120.475403","is_island":false,"lat":"22.890390"},{"zip_code":"843","ship_id":"6400031","name":"美濃區","lng":"120.533775","is_island":false,"lat":"22.896519"},{"zip_code":"844","ship_id":"6400032","name":"六龜區","lng":"120.624641","is_island":false,"lat":"23.000179"},{"zip_code":"847","ship_id":"6400033","name":"甲仙區","lng":"120.579811","is_island":false,"lat":"23.085825"},{"zip_code":"846","ship_id":"6400034","name":"杉林區","lng":"120.531929","is_island":false,"lat":"22.973536"},{"zip_code":"845","ship_id":"6400035","name":"內門區","lng":"120.454552","is_island":false,"lat":"22.944590"},{"zip_code":"851","ship_id":"6400036","name":"茂林區","lng":"120.655624","is_island":false,"lat":"22.888083"},{"zip_code":"848","ship_id":"6400037","name":"桃源區","lng":"120.756065","is_island":false,"lat":"23.161022"},{"zip_code":"849","ship_id":"6400038","name":"那瑪夏區","lng":"120.688698","is_island":false,"lat":"23.240034"},{"zip_code":"803","ship_id":"6400100","name":"鹽埕區","lng":"120.278709","is_island":false,"lat":"22.626497"},{"zip_code":"804","ship_id":"6400200","name":"鼓山區","lng":"120.273018","is_island":false,"lat":"22.638584"},{"zip_code":"813","ship_id":"6400300","name":"左營區","lng":"120.287033","is_island":false,"lat":"22.691595"},{"zip_code":"811","ship_id":"6400400","name":"楠梓區","lng":"120.318268","is_island":false,"lat":"22.730249"},{"zip_code":"807","ship_id":"6400500","name":"三民區","lng":"120.291740","is_island":false,"lat":"22.649368"},{"zip_code":"800","ship_id":"6400600","name":"新興區","lng":"120.301949","is_island":false,"lat":"22.632759"},{"zip_code":"801","ship_id":"6400700","name":"前金區","lng":"120.286148","is_island":false,"lat":"22.629185"},{"zip_code":"802","ship_id":"6400800","name":"苓雅區","lng":"120.304085","is_island":false,"lat":"22.623510"},{"zip_code":"806","ship_id":"6400900","name":"前鎮區","lng":"120.310242","is_island":false,"lat":"22.588331"},{"zip_code":"805","ship_id":"6401000","name":"旗津區","lng":"120.259857","is_island":false,"lat":"22.612669"},{"zip_code":"812","ship_id":"6401100","name":"小港區","lng":"120.330139","is_island":false,"lat":"22.567160"}]},{"id":"10016","name":"澎湖縣","districs":[{"zip_code":"880","ship_id":"1001601","name":"馬公市","lng":"119.570663","is_island":true,"lat":"23.567554"},{"zip_code":"885","ship_id":"1001602","name":"湖西鄉","lng":"119.644585","is_island":true,"lat":"23.585360"},{"zip_code":"884","ship_id":"1001603","name":"白沙鄉","lng":"119.590500","is_island":true,"lat":"23.668240"},{"zip_code":"881","ship_id":"1001604","name":"西嶼鄉","lng":"119.498787","is_island":true,"lat":"23.602686"},{"zip_code":"882","ship_id":"1001605","name":"望安鄉","lng":"119.492355","is_island":true,"lat":"23.359118"},{"zip_code":"883","ship_id":"1001606","name":"七美鄉","lng":"119.416527","is_island":true,"lat":"23.208433"}]},{"id":"9020","name":"金門縣","districs":[{"zip_code":"893","ship_id":"902001","name":"金城鎮","lng":"118.312424","is_island":true,"lat":"24.434364"},{"zip_code":"890","ship_id":"902002","name":"金沙鎮","lng":"118.404953","is_island":true,"lat":"24.490562"},{"zip_code":"891","ship_id":"902003","name":"金湖鎮","lng":"118.408913","is_island":true,"lat":"24.443039"},{"zip_code":"892","ship_id":"902004","name":"金寧鄉","lng":"118.326698","is_island":true,"lat":"24.452557"},{"zip_code":"894","ship_id":"902005","name":"烈嶼鄉","lng":"118.236336","is_island":true,"lat":"24.431150"},{"zip_code":"896","ship_id":"902006","name":"烏坵鄉","lng":"119.445976","is_island":true,"lat":"24.992846"}]},{"id":"10013","name":"屏東縣","districs":[{"zip_code":"900","ship_id":"1001301","name":"屏東市","lng":"120.483391","is_island":false,"lat":"22.664236"},{"zip_code":"920","ship_id":"1001302","name":"潮州鎮","lng":"120.534889","is_island":false,"lat":"22.551628"},{"zip_code":"928","ship_id":"1001303","name":"東港鎮","lng":"120.446220","is_island":false,"lat":"22.468431"},{"zip_code":"946","ship_id":"1001304","name":"恆春鎮","lng":"120.739265","is_island":false,"lat":"22.005619"},{"zip_code":"913","ship_id":"1001305","name":"萬丹鄉","lng":"120.477051","is_island":false,"lat":"22.591255"},{"zip_code":"908","ship_id":"1001306","name":"長治鄉","lng":"120.519150","is_island":false,"lat":"22.678251"},{"zip_code":"909","ship_id":"1001307","name":"麟洛鄉","lng":"120.519035","is_island":false,"lat":"22.652336"},{"zip_code":"904","ship_id":"1001308","name":"九如鄉","lng":"120.482338","is_island":false,"lat":"22.742027"},{"zip_code":"905","ship_id":"1001309","name":"里港鄉","lng":"120.486412","is_island":false,"lat":"22.780914"},{"zip_code":"907","ship_id":"1001310","name":"鹽埔鄉","lng":"120.564629","is_island":false,"lat":"22.756189"},{"zip_code":"906","ship_id":"1001311","name":"高樹鄉","lng":"120.592255","is_island":false,"lat":"22.828306"},{"zip_code":"923","ship_id":"1001312","name":"萬巒鄉","lng":"120.559723","is_island":false,"lat":"22.574484"},{"zip_code":"912","ship_id":"1001313","name":"內埔鄉","lng":"120.558678","is_island":false,"lat":"22.613823"},{"zip_code":"911","ship_id":"1001314","name":"竹田鄉","lng":"120.535980","is_island":false,"lat":"22.586458"},{"zip_code":"925","ship_id":"1001315","name":"新埤鄉","lng":"120.541840","is_island":false,"lat":"22.471981"},{"zip_code":"940","ship_id":"1001316","name":"枋寮鄉","lng":"120.585442","is_island":false,"lat":"22.367264"},{"zip_code":"932","ship_id":"1001317","name":"新園鄉","lng":"120.453484","is_island":false,"lat":"22.545607"},{"zip_code":"924","ship_id":"1001318","name":"崁頂鄉","lng":"120.506050","is_island":false,"lat":"22.516479"},{"zip_code":"927","ship_id":"1001319","name":"林邊鄉","lng":"120.506256","is_island":false,"lat":"22.436710"},{"zip_code":"926","ship_id":"1001320","name":"南州鄉","lng":"120.501732","is_island":false,"lat":"22.492188"},{"zip_code":"931","ship_id":"1001321","name":"佳冬鄉","lng":"120.544388","is_island":false,"lat":"22.420984"},{"zip_code":"929","ship_id":"1001322","name":"琉球鄉","lng":"120.374245","is_island":true,"lat":"22.354778"},{"zip_code":"944","ship_id":"1001323","name":"車城鄉","lng":"120.706223","is_island":false,"lat":"22.075499"},{"zip_code":"947","ship_id":"1001324","name":"滿州鄉","lng":"120.830605","is_island":false,"lat":"22.022579"},{"zip_code":"941","ship_id":"1001325","name":"枋山鄉","lng":"120.644424","is_island":false,"lat":"22.265762"},{"zip_code":"901","ship_id":"1001326","name":"三地門鄉","lng":"120.646255","is_island":false,"lat":"22.718081"},{"zip_code":"902","ship_id":"1001327","name":"霧台鄉","lng":"120.720146","is_island":false,"lat":"22.750784"},{"zip_code":"903","ship_id":"1001328","name":"瑪家鄉","lng":"120.641304","is_island":false,"lat":"22.710287"},{"zip_code":"921","ship_id":"1001329","name":"泰武鄉","lng":"120.623795","is_island":false,"lat":"22.593632"},{"zip_code":"922","ship_id":"1001330","name":"來義鄉","lng":"120.623489","is_island":false,"lat":"22.527868"},{"zip_code":"942","ship_id":"1001331","name":"春日鄉","lng":"120.621033","is_island":false,"lat":"22.372740"},{"zip_code":"943","ship_id":"1001332","name":"獅子鄉","lng":"120.697395","is_island":false,"lat":"22.203535"},{"zip_code":"945","ship_id":"1001333","name":"牡丹鄉","lng":"120.766205","is_island":false,"lat":"22.128092"}]},{"id":"10014","name":"台東縣","districs":[{"zip_code":"950","ship_id":"1001401","name":"台東市","lng":"121.138672","is_island":false,"lat":"22.756487"},{"zip_code":"961","ship_id":"1001402","name":"成功鎮","lng":"121.371613","is_island":false,"lat":"23.102020"},{"zip_code":"956","ship_id":"1001403","name":"關山鎮","lng":"121.155014","is_island":false,"lat":"23.049215"},{"zip_code":"954","ship_id":"1001404","name":"卑南鄉","lng":"121.078957","is_island":false,"lat":"22.784340"},{"zip_code":"955","ship_id":"1001405","name":"鹿野鄉","lng":"121.128052","is_island":false,"lat":"22.916271"},{"zip_code":"958","ship_id":"1001406","name":"池上鄉","lng":"121.206955","is_island":false,"lat":"23.124023"},{"zip_code":"959","ship_id":"1001407","name":"東河鄉","lng":"121.294647","is_island":false,"lat":"22.970526"},{"zip_code":"962","ship_id":"1001408","name":"長濱鄉","lng":"121.443321","is_island":false,"lat":"23.316795"},{"zip_code":"963","ship_id":"1001409","name":"太麻里鄉","lng":"120.999557","is_island":false,"lat":"22.617287"},{"zip_code":"965","ship_id":"1001410","name":"大武鄉","lng":"120.882042","is_island":false,"lat":"22.342278"},{"zip_code":"951","ship_id":"1001411","name":"綠島鄉","lng":"121.460480","is_island":true,"lat":"22.670721"},{"zip_code":"957","ship_id":"1001412","name":"海端鄉","lng":"121.168579","is_island":false,"lat":"23.103786"},{"zip_code":"953","ship_id":"1001413","name":"延平鄉","lng":"121.077644","is_island":false,"lat":"22.904123"},{"zip_code":"964","ship_id":"1001414","name":"金峰鄉","lng":"120.952782","is_island":false,"lat":"22.596478"},{"zip_code":"966","ship_id":"1001415","name":"達仁鄉","lng":"120.874916","is_island":false,"lat":"22.298588"},{"zip_code":"952","ship_id":"1001416","name":"蘭嶼鄉","lng":"121.501938","is_island":true,"lat":"22.058756"}]},{"id":"10015","name":"花蓮縣","districs":[{"zip_code":"970","ship_id":"1001501","name":"花蓮市","lng":"121.598640","is_island":false,"lat":"23.983896"},{"zip_code":"975","ship_id":"1001502","name":"鳳林鎮","lng":"121.443703","is_island":false,"lat":"23.746481"},{"zip_code":"981","ship_id":"1001503","name":"玉里鎮","lng":"121.307205","is_island":false,"lat":"23.337337"},{"zip_code":"971","ship_id":"1001504","name":"新城鄉","lng":"121.596230","is_island":false,"lat":"24.041258"},{"zip_code":"973","ship_id":"1001505","name":"吉安鄉","lng":"121.555542","is_island":false,"lat":"23.974770"},{"zip_code":"974","ship_id":"1001506","name":"壽豐鄉","lng":"121.500740","is_island":false,"lat":"23.872007"},{"zip_code":"976","ship_id":"1001507","name":"光復鄉","lng":"121.415123","is_island":false,"lat":"23.671122"},{"zip_code":"977","ship_id":"1001508","name":"豐濱鄉","lng":"121.513008","is_island":false,"lat":"23.603086"},{"zip_code":"978","ship_id":"1001509","name":"瑞穗鄉","lng":"121.367874","is_island":false,"lat":"23.498474"},{"zip_code":"983","ship_id":"1001510","name":"富里鄉","lng":"121.242134","is_island":false,"lat":"23.181219"},{"zip_code":"972","ship_id":"1001511","name":"秀林鄉","lng":"121.616737","is_island":false,"lat":"24.120562"},{"zip_code":"979","ship_id":"1001512","name":"萬榮鄉","lng":"121.402802","is_island":false,"lat":"23.716576"},{"zip_code":"982","ship_id":"1001513","name":"卓溪鄉","lng":"121.295349","is_island":false,"lat":"23.348269"}]}],"RO":{"Result":"200","Time":"2016-06-29 10:20:39","Message":"","Code":"1","Timestamp":1467166839599,"Desc":"執行成功"},"Version":"20160629102039598"}